,city,food_type,latitude,longitude,name,rank,rating,review_count
0,"Seattle, Washington",pho,47.6256,-122.34926,pho-viet-anh-seattle,0,4.0,547
1,"Seattle, Washington",pho,47.6169506,-122.3310034,pho-bac-seattle-15,1,4.0,372
2,"Seattle, Washington",pho,47.598683,-122.323712,pho-ba-seattle-4,2,4.0,361
3,"Seattle, Washington",pho,47.6146521760056,-122.344533008587,local-pho-seattle,3,4.0,364
4,"Seattle, Washington",pho,47.668837642245,-122.38705422959,pho-big-bowl-seattle,4,4.0,368
